[
 {
   "name": "Acamarachi",
   "country": "Chile",
   "type": "Stratovolcano",
   "lati": -23.3,
   "long": -67.62,
   "elevation": 6046
 },
 {
   "name": "Acatenango",
   "country": "Guatemala",
   "type": "Stratovolcano",
   "lati": 14.5,
   "long": -90.88,
   "elevation": 3976
 },
 {
   "name": "Acigöl-Nevsehir",
   "country": "Turkey",
   "type": "Caldera",
   "lati": 38.57,
   "long": 34.52,
   "elevation": 1689
 },
 {
   "name": "Adams",
   "country": "USA",
   "type": "Stratovolcano",
   "lati": 46.21,
   "long": -121.49,
   "elevation": 3742
 },
 {
   "name": "Adams Seamount",
   "country": "Pacific Ocean",
   "type": "Submarine",
   "lati": -25.37,
   "long": -129.27,
   "elevation": -39
 },
 {
   "name": "Adatara",
   "country": "Japan",
   "type": "Stratovolcano",
   "lati": 37.64,
   "long": 140.29,
   "elevation": 1718
 },
 {
   "name": "Adwa",
   "country": "Ethiopia",
   "type": "Stratovolcano",
   "lati": 10.07,
   "long": 40.84,
   "elevation": 1733
 },
 {
   "name": "Afderà",
   "country": "Ethiopia",
   "type": "Stratovolcano",
   "lati": 13.08,
   "long": 40.85,
   "elevation": 1295
 },
 {
   "name": "Agrigan",
   "country": "Mariana Islands",
   "type": "Stratovolcano",
   "lati": 18.77,
   "long": 145.67,
   "elevation": 965
 },
 {
   "name": "Agua",
   "country": "Guatemala",
   "type": "Stratovolcano",
   "lati": 14.47,
   "long": -90.74,
   "elevation": 3760
 },
 {
   "name": "Agua de Pau",
   "country": "Azores",
   "type": "Stratovolcano",
   "lati": 37.77,
   "long": -25.47,
   "elevation": 947
 },
 {
   "name": "Aguilera",
   "country": "Chile",
   "type": "Stratovolcano",
   "lati": -50.33,
   "long": -73.75,
   "elevation": 2546
 },
 {
   "name": "Agung",
   "country": "Lesser Sunda Islands",
   "type": "Stratovolcano",
   "lati": -8.34,
   "long": 115.51,
   "elevation": 3142
 },
 {
   "name": "Ahyi",
   "country": "Mariana Islands",
   "type": "Submarine",
   "lati": 20.42,
   "long": 145.03,
   "elevation": -137
 },
 {
   "name": "Akademia Nauk",
   "country": "Russia",
   "type": "Caldera",
   "lati": 53.98,
   "long": 159.45,
   "elevation": 1180
 },
 {
   "name": "Akagi",
   "country": "Japan",
   "type": "Stratovolcano",
   "lati": 36.56,
   "long": 139.2,
   "elevation": 1828
 },
 {
   "name": "Akan",
   "country": "Japan",
   "type": "Caldera",
   "lati": 43.38,
   "long": 144.01,
   "elevation": 1499
 },
  {
   "name": "Abu",
   "country": "Japan",
   "type": "Shield",
   "lati": 34.5,
   "long": 131.6,
   "elevation": 641
 },
 {
   "name": "Akhtang",
   "country": "Russia",
   "type": "Shield",
   "lati": 55.43,
   "long": 158.65,
   "elevation": 1956
 },
 {
   "name": "Akita Komagatake",
   "country": "Japan",
   "type": "Stratovolcano",
   "lati": 39.76,
   "long": 140.8,
   "elevation": 1637
 },
 {
   "name": "Akita Yakeyama",
   "country": "Japan",
   "type": "Stratovolcano",
   "lati": 39.96,
   "long": 140.76,
   "elevation": 1366
 },
 {
   "name": "Akuseki-jima",
   "country": "Japan",
   "type": "Stratovolcano",
   "lati": 29.46,
   "long": 129.6,
   "elevation": 584
 },
 {
   "name": "Akutan",
   "country": "USA",
   "type": "Stratovolcano",
   "lati": 54.13,
   "long": -165.99,
   "elevation": 1303
 },
 {
   "name": "Alaid",
   "country": "Russia",
   "type": "Stratovolcano",
   "lati": 50.86,
   "long": 155.55,
   "elevation": 2339
 },
 {
   "name": "Alamagan",
   "country": "Mariana Islands",
   "type": "Stratovolcano",
   "lati": 17.6,
   "long": 145.83,
   "elevation": 744
 },
 {
   "name": "Alayta",
   "country": "Ethiopia",
   "type": "Shield",
   "lati": 12.88,
   "long": 40.57,
   "elevation": 1501
 },
 {
   "name": "Alban Hills",
   "country": "Italy",
   "type": "Caldera",
   "lati": 41.73,
   "long": 12.7,
   "elevation": 949
 },
 {
   "name": "Alcedo",
   "country": "Galapagos Islands",
   "type": "Shield",
   "lati": -0.43,
   "long": -91.12,
   "elevation": 1130
 },
 {
   "name": "Ale Bagu",
   "country": "Ethiopia",
   "type": "Stratovolcano",
   "lati": 13.52,
   "long": 40.63,
   "elevation": 1031
 },
 {
   "name": "Alid",
   "country": "Eritrea",
   "type": "Stratovolcano",
   "lati": 14.88,
   "long": 39.92,
   "elevation": 904
 },
 {
   "name": "Altiplano-Puna Volcanic Complex",
   "country": "Multiple Countries",
   "type": "",
   "lati": -22.44,
   "long": -67.96,
   "elevation": 4600
 },
 {
   "name": "Ambrym",
   "country": "Vanuatu",
   "type": "Shield",
   "lati": -16.25,
   "long": 168.12,
   "elevation": 1334
 },
 {
   "name": "Anatahan",
   "country": "Mariana Islands",
   "type": "Stratovolcano",
   "lati": 16.35,
   "long": 145.67,
   "elevation": 790
 },
 {
   "name": "Aneityum",
   "country": "Vanuatu",
   "type": "Stratovolcano",
   "lati": -20.2,
   "long": 169.78,
   "elevation": 852
 },
 {
   "name": "Aniakchak",
   "country": "USA",
   "type": "Caldera",
   "lati": 56.88,
   "long": -158.17,
   "elevation": 1341
 },
 {
   "name": "Antisana",
   "country": "Ecuador",
   "type": "Stratovolcano",
   "lati": -0.48,
   "long": -78.14,
   "elevation": 5753
 },
 {
   "name": "Aoba",
   "country": "Vanuatu",
   "type": "Shield",
   "lati": -15.4,
   "long": 167.83,
   "elevation": 1496
 },
 {
   "name": "Ararat",
   "country": "Turkey",
   "type": "Stratovolcano",
   "lati": 39.7,
   "long": 44.3,
   "elevation": 5165
 },
 {
   "name": "Arenal",
   "country": "Costa Rica",
   "type": "Stratovolcano",
   "lati": 10.46,
   "long": -84.7,
   "elevation": 1670
 },
 {
   "name": "Arintica",
   "country": "Chile",
   "type": "Complex Volcano",
   "lati": -18.73,
   "long": -69.05,
   "elevation": 5597
 },
 {
   "name": "Asacha",
   "country": "Russia",
   "type": "Stratovolcano",
   "lati": 52.36,
   "long": 157.83,
   "elevation": 1910
 },
 {
   "name": "Asama",
   "country": "Japan",
   "type": "Complex Volcano",
   "lati": 36.4,
   "long": 138.53,
   "elevation": 2568
 },
 {
   "name": "Ascensión",
   "country": "South Atlantic Ocean",
   "type": "Stratovolcano",
   "lati": -7.95,
   "long": -14.37,
   "elevation": 858
 },
 {
   "name": "Askja",
   "country": "Iceland",
   "type": "Stratovolcano",
   "lati": 65.03,
   "long": -16.75,
   "elevation": 1516
 },
 {
   "name": "Aso",
   "country": "Japan",
   "type": "Caldera",
   "lati": 32.88,
   "long": 131.11,
   "elevation": 1592
 },
 {
   "name": "Atitlán",
   "country": "Guatemala",
   "type": "Complex Volcano",
   "lati": 14.58,
   "long": -91.19,
   "elevation": 3535
 },
 {
   "name": "Atka",
   "country": "USA",
   "type": "Caldera",
   "lati": 52.38,
   "long": -174.15,
   "elevation": 1533
 },
 {
   "name": "Atsonupuri",
   "country": "Russia",
   "type": "Stratovolcano",
   "lati": 44.81,
   "long": 147.14,
   "elevation": 1206
 },
 {
   "name": "Augustine",
   "country": "USA",
   "type": "Dome",
   "lati": 59.36,
   "long": -153.43,
   "elevation": 1252
 },
 {
   "name": "Avachinsky",
   "country": "Russia",
   "type": "Stratovolcano",
   "lati": 53.26,
   "long": 158.83,
   "elevation": 2741
 },
 {
   "name": "Awu",
   "country": "Indonesia",
   "type": "Stratovolcano",
   "lati": 3.67,
   "long": 125.5,
   "elevation": 1320
 },
 {
   "name": "Axial Seamount",
   "country": "Pacific Ocean",
   "type": "Submarine",
   "lati": 45.95,
   "long": -130,
   "elevation": -1410
 },
 {
   "name": "Ayelu",
   "country": "Ethiopia",
   "type": "Stratovolcano",
   "lati": 10.08,
   "long": 40.7,
   "elevation": 2145
 },
 {
   "name": "Azufre",
   "country": "Chile",
   "type": "Complex Volcano",
   "lati": -21.79,
   "long": -68.24,
   "elevation": 5846
 },
 {
   "name": "Azuma",
   "country": "Japan",
   "type": "Stratovolcano",
   "lati": 37.73,
   "long": 140.25,
   "elevation": 2035
 },
 {
   "name": "Babuyon Claro",
   "country": "Philippines",
   "type": "Stratovolcano",
   "lati": 19.5,
   "long": 121.9,
   "elevation": 1180
 },
 {
   "name": "Bachelor",
   "country": "USA",
   "type": "Stratovolcano",
   "lati": 43.8,
   "long": -121.6,
   "elevation": 2763
 },
 {
   "name": "Bagana",
   "country": "Papua New Guinea",
   "type": "Cinder Cone",
   "lati": -6.1,
   "long": 155.2,
   "elevation": 1750
 },
 {
   "name": "Baker",
   "country": "USA",
   "type": "Stratovolcano",
   "lati": 48.79,
   "long": -121.82,
   "elevation": 3285
 },
 {
   "name": "Bam",
   "country": "Papua New Guinea",
   "type": "Stratovolcano",
   "lati": -3.6,
   "long": 144.85,
   "elevation": 685
 },
 {
   "name": "Bamus",
   "country": "Papua New Guinea",
   "type": "Stratovolcano",
   "lati": -5.2,
   "long": 151.2,
   "elevation": 2248
 },
 {
   "name": "Bandai",
   "country": "Japan",
   "type": "Stratovolcano",
   "lati": 37.6,
   "long": 140.1,
   "elevation": 1819
 },
 {
   "name": "Barren Island",
   "country": "India",
   "type": "Pyroclastic Cone",
   "lati": 12.29,
   "long": 93.88,
   "elevation": 305
 },
 {
   "name": "Barrier",
   "country": "Kenya",
   "type": "Complex Volcano",
   "lati": 2.32,
   "long": 36.57,
   "elevation": 1032
 },
 {
   "name": "Bazman",
   "country": "Iran",
   "type": "Stratovolcano",
   "lati": 28,
   "long": 60,
   "elevation": 3490
 },
 {
   "name": "Beerenberg",
   "country": "Norway",
   "type": "Stratovolcano",
   "lati": 71.1,
   "long": -8.2,
   "elevation": 2277
 },
 {
   "name": "Belknap",
   "country": "USA",
   "type": "Shield",
   "lati": 44.28,
   "long": -121.83,
   "elevation": 2096
 },
 {
   "name": "Bezymianny",
   "country": "Russia",
   "type": "Stratovolcano",
   "lati": 55.98,
   "long": 160.58,
   "elevation": 2882
 },
 {
   "name": "Biliran",
   "country": "Philippines",
   "type": "Complex Volcano",
   "lati": 11.5,
   "long": 124.5,
   "elevation": 1187
 },
 {
   "name": "Bolshoi Semiachik",
   "country": "Russia",
   "type": "Stratovolcano",
   "lati": 54.32,
   "long": 160.02,
   "elevation": 1720
 },
 {
   "name": "Bulusan",
   "country": "Philippines",
   "type": "Stratovolcano",
   "lati": 12.8,
   "long": 124.1,
   "elevation": 1565
 },
 {
   "name": "Butajira",
   "country": "Ethiopia",
   "type": "Maar",
   "lati": 8.05,
   "long": 38.35,
   "elevation": 2281
 },
 {
   "name": "Cameroon (Mount)",
   "country": "Cameroon",
   "type": "Stratovolcano",
   "lati": 4.2,
   "long": 9.17,
   "elevation": 4095
 },
 {
   "name": "Camiguin de Babuyanes",
   "country": "Philippines",
   "type": "Stratovolcano",
   "lati": 18.83,
   "long": 121.85,
   "elevation": 712
 },
 {
   "name": "Canlaon",
   "country": "Philippines",
   "type": "Stratovolcano",
   "lati": 10.41,
   "long": 123.13,
   "elevation": 2435
 },
 {
   "name": "Capulin",
   "country": "USA",
   "type": "Cinder Cone",
   "lati": 36.45,
   "long": -104.09,
   "elevation": 2494
 },
 {
   "name": "Carrizozo",
   "country": "USA",
   "type": "Volcanic Field",
   "lati": 33.7,
   "long": -106,
   "elevation": 1730
 },
 {
   "name": "Cayambe",
   "country": "Ecuador",
   "type": "Stratovolcano",
   "lati": 0.03,
   "long": -77.99,
   "elevation": 5790
 },
 {
   "name": "Cereme",
   "country": "Indonesia",
   "type": "Stratovolcano",
   "lati": -6.9,
   "long": 108.41,
   "elevation": 3078
 },
 {
   "name": "Chaine des Puys",
   "country": "France",
   "type": "Dome",
   "lati": 45.78,
   "long": 2.97,
   "elevation": 1464
 },
 {
   "name": "Chiginagak",
   "country": "USA",
   "type": "Stratovolcano",
   "lati": 57.13,
   "long": -156.99,
   "elevation": 2067
 },
 {
   "name": "Chikurachki",
   "country": "Russia",
   "type": "Stratovolcano",
   "lati": 50.33,
   "long": 155.46,
   "elevation": 5958
 },
 {
   "name": "Chimborazo",
   "country": "Ecuador",
   "type": "Stratovolcano",
   "lati": -1.46,
   "long": -78.82,
   "elevation": 6310
 },
 {
   "name": "Cleveland",
   "country": "USA",
   "type": "Stratovolcano",
   "lati": 52.83,
   "long": -169.95,
   "elevation": 1730
 },
 {
   "name": "Coatepeque",
   "country": "El Salvador",
   "type": "Caldera",
   "lati": 13.86,
   "long": -89.54,
   "elevation": 746
 },
 {
   "name": "Colima",
   "country": "Mexico",
   "type": "Stratovolcano",
   "lati": 19.51,
   "long": -103.62,
   "elevation": 4100
 },
 {
   "name": "Concepción",
   "country": "Nicaragua",
   "type": "Stratovolcano",
   "lati": 11.5,
   "long": -85.6,
   "elevation": 1610
 },
 {
   "name": "Copahue",
   "country": "Argentina",
   "type": "Stratovolcano",
   "lati": -37.85,
   "long": -71.17,
   "elevation": 2965
 },
 {
   "name": "Cosigüina",
   "country": "Nicaragua",
   "type": "Shield",
   "lati": 12.98,
   "long": -87.56,
   "elevation": 847
 },
 {
   "name": "Cotopaxi",
   "country": "Ecuador",
   "type": "Stratovolcano",
   "lati": -0.68,
   "long": -78.44,
   "elevation": 5911
 },
 {
   "name": "Crater Lake",
   "country": "USA",
   "type": "Caldera",
   "lati": 42.94,
   "long": -122.11,
   "elevation": 2471
 },
 {
   "name": "Craters of the Moon",
   "country": "USA",
   "type": "Volcanic Field",
   "lati": 43.42,
   "long": -113.5,
   "elevation": 2005
 },
 {
   "name": "Daisetsu",
   "country": "Japan",
   "type": "Stratovolcano",
   "lati": 43.7,
   "long": 142.9,
   "elevation": 2290
 },
 {
   "name": "Dakataua",
   "country": "Papua New Guinea",
   "type": "Caldera",
   "lati": -5,
   "long": 150.1,
   "elevation": 400
 },
 {
   "name": "Damavand",
   "country": "Iran",
   "type": "Stratovolcano",
   "lati": 35.95,
   "long": 52.11,
   "elevation": 5670
 },
 {
   "name": "Dempo",
   "country": "Indonesia",
   "type": "Stratovolcano",
   "lati": -4,
   "long": 103.1,
   "elevation": 3173
 },
 {
   "name": "Devils Garden",
   "country": "USA",
   "type": "Volcanic Field",
   "lati": 43.5,
   "long": -120.9,
   "elevation": 1525
 },
 {
   "name": "Devils Tower",
   "country": "USA",
   "type": "Plug",
   "lati": 44.6,
   "long": -104.7,
   "elevation": 1558
 },
 {
   "name": "Diamond Craters",
   "country": "USA",
   "type": "Volcanic Field",
   "lati": 43.1,
   "long": -118.7,
   "elevation": 1450
 },
 {
   "name": "Dieng Volcanic Complex",
   "country": "Indonesia",
   "type": "Complex Volcano",
   "lati": -7.2,
   "long": 109.9,
   "elevation": 2565
 },
 {
   "name": "Diky Greben",
   "country": "Russia",
   "type": "Dome",
   "lati": 51.46,
   "long": 156.98,
   "elevation": 1331
 },
 {
   "name": "Dubbi",
   "country": "Eritrea",
   "type": "Stratovolcano",
   "lati": 13.6,
   "long": 41.8,
   "elevation": 1625
 },
 {
   "name": "Dukono",
   "country": "Indonesia",
   "type": "Complex Volcano",
   "lati": 1.7,
   "long": 127.87,
   "elevation": 1185
 },
 {
   "name": "East Epi",
   "country": "Vanuatu",
   "type": "Caldera",
   "lati": -16.7,
   "long": 168.4,
   "elevation": -34
 },
 {
   "name": "Ebeko",
   "country": "Russia",
   "type": "Somma Volcano",
   "lati": 50.68,
   "long": 156.02,
   "elevation": 1156
 },
 {
   "name": "Egmont (Taranaki)",
   "country": "New Zealand",
   "type": "Stratovolcano",
   "lati": -39.3,
   "long": 174.1,
   "elevation": 2518
 },
 {
   "name": "Egon",
   "country": "Indonesia",
   "type": "Stratovolcano",
   "lati": -8.7,
   "long": 122.45,
   "elevation": 788
 },
 {
   "name": "El Chichon",
   "country": "Mexico",
   "type": "Caldera",
   "lati": 17.36,
   "long": -93.23,
   "elevation": 1060
 },
 {
   "name": "Elbrus",
   "country": "Russia",
   "type": "Stratovolcano",
   "lati": 43.33,
   "long": 42.45,
   "elevation": 5633
 },
 {
   "name": "Erebus",
   "country": "Antarctica",
   "type": "Stratovolcano",
   "lati": -77.5,
   "long": 167.2,
   "elevation": 3794
 },
 {
   "name": "Erta Ale",
   "country": "Ethiopia",
   "type": "Shield",
   "lati": 13.6,
   "long": 40.7,
   "elevation": 613
 },
 {
   "name": "Etna",
   "country": "Italy",
   "type": "Stratovolcano",
   "lati": 37.73,
   "long": 15,
   "elevation": 3350
 },
 {
   "name": "Fantale",
   "country": "Ethiopia",
   "type": "Stratovolcano",
   "lati": 8.98,
   "long": 39.93,
   "elevation": 2007
 },
 {
   "name": "Fernandina",
   "country": "Ecuador",
   "type": "Caldera",
   "lati": -0.37,
   "long": -91.55,
   "elevation": 1476
 },
 {
   "name": "Fisher",
   "country": "USA",
   "type": "Stratovolcano",
   "lati": 54.63,
   "long": -164.42,
   "elevation": 1095
 },
 {
   "name": "Fogo",
   "country": "Cape Verde Islands",
   "type": "Stratovolcano",
   "lati": 14.95,
   "long": -24.35,
   "elevation": 2829
 },
 {
   "name": "Fort Rock",
   "country": "USA",
   "type": "Maar",
   "lati": 43.37,
   "long": -121.07,
   "elevation": 1716
 },
 {
   "name": "Frosty Peak",
   "country": "USA",
   "type": "Stratovolcano",
   "lati": 55.08,
   "long": -162.81,
   "elevation": 1920
 },
 {
   "name": "Fuego",
   "country": "Guatemala",
   "type": "Stratovolcano",
   "lati": 14.47,
   "long": -90.88,
   "elevation": 3763
 },
 {
   "name": "Fuerteventura",
   "country": "Spain",
   "type": "Fissure vents",
   "lati": 28.36,
   "long": -14.02,
   "elevation": 529
 },
 {
   "name": "Fuji",
   "country": "Japan",
   "type": "Stratovolcano",
   "lati": 35.36,
   "long": 138.73,
   "elevation": 3776
 },
 {
   "name": "Furnas",
   "country": "Azores (Portugal)",
   "type": "Stratovolcano",
   "lati": 37.76,
   "long": -25.33,
   "elevation": 805
 },
 {
   "name": "Fuss Peak",
   "country": "Russia",
   "type": "Stratovolcano",
   "lati": 50.27,
   "long": 155.25,
   "elevation": 1772
 },
 {
   "name": "Galeras",
   "country": "Colombia",
   "type": "Stratovolcano",
   "lati": 1.22,
   "long": -77.37,
   "elevation": 4276
 },
 {
   "name": "Galunggung",
   "country": "Indonesia",
   "type": "Stratovolcano",
   "lati": -7.26,
   "long": 108.08,
   "elevation": 2168
 },
 {
   "name": "Gamalama",
   "country": "Indonesia",
   "type": "Stratovolcano",
   "lati": 0.81,
   "long": 127.33,
   "elevation": 1715
 },
 {
   "name": "Gamchen",
   "country": "Russia",
   "type": "Stratovolcano",
   "lati": 54.97,
   "long": 160.68,
   "elevation": 2576
 },
 {
   "name": "Gamkonora",
   "country": "Indonesia",
   "type": "Stratovolcano",
   "lati": 1.38,
   "long": 127.53,
   "elevation": 1635
 },
 {
   "name": "Gareloi",
   "country": "USA",
   "type": "Stratovolcano",
   "lati": 51.8,
   "long": 178.8,
   "elevation": 1573
 },
 {
   "name": "Gaua",
   "country": "Vanuatu",
   "type": "Stratovolcano",
   "lati": -14.27,
   "long": 167.5,
   "elevation": 797
 },
 {
   "name": "Gede",
   "country": "Indonesia",
   "type": "",
   "lati": -6.77,
   "long": 106.94,
   "elevation": 2958
 },
 {
   "name": "Glacier Peak",
   "country": "USA",
   "type": "Stratovolcano",
   "lati": 48.11,
   "long": -121.11,
   "elevation": 3213
 },
 {
   "name": "Gorely",
   "country": "Russia",
   "type": "Caldera",
   "lati": 52.56,
   "long": 158.03,
   "elevation": 1829
 },
 {
   "name": "Graciosa",
   "country": "Azores (Portugal)",
   "type": "Stratovolcano",
   "lati": 39.02,
   "long": -27.97,
   "elevation": 402
 },
 {
   "name": "Gran Canaria",
   "country": "Canary Islands (Spain)",
   "type": "Fissure vents",
   "lati": 28,
   "long": -15.58,
   "elevation": 1950
 },
 {
   "name": "Great Sitkin",
   "country": "USA",
   "type": "Stratovolcano",
   "lati": 52.07,
   "long": -176.13,
   "elevation": 1740
 },
 {
   "name": "Griggs",
   "country": "USA",
   "type": "Stratovolcano",
   "lati": 58.35,
   "long": -155.09,
   "elevation": 2317
 },
 {
   "name": "Grímsvötn",
   "country": "Iceland",
   "type": "Caldera",
   "lati": 64.42,
   "long": -17.33,
   "elevation": 1725
 },
 {
   "name": "Guagua Pichincha",
   "country": "Ecuador",
   "type": "",
   "lati": -0.17,
   "long": -78.6,
   "elevation": 4784
 },
 {
   "name": "Guallatiri",
   "country": "Chile",
   "type": "Stratovolcano",
   "lati": -18.42,
   "long": -69.09,
   "elevation": 6071
 },
 {
   "name": "Guguan",
   "country": "USA",
   "type": "Stratovolcano",
   "lati": 17.31,
   "long": 145.84,
   "elevation": 287
 },
 {
   "name": "Hakone",
   "country": "Japan",
   "type": "",
   "lati": 35.23,
   "long": 139.02,
   "elevation": 1439
 },
 {
   "name": "Heard",
   "country": "Australia",
   "type": "Stratovolcano",
   "lati": -53.1,
   "long": 73.5,
   "elevation": 2745
 },
 {
   "name": "Hibok-hibok",
   "country": "Philippines",
   "type": "Stratovolcano",
   "lati": 9.2,
   "long": 124.7,
   "elevation": 1332
 },
 {
   "name": "Hierro",
   "country": "Spain",
   "type": "Shield",
   "lati": 27.73,
   "long": -18.03,
   "elevation": 1500
 },
 {
   "name": "Hood",
   "country": "USA",
   "type": "Stratovolcano",
   "lati": 45.4,
   "long": -121.7,
   "elevation": 3426
 },
 {
   "name": "Hualalai",
   "country": "USA",
   "type": "Shield",
   "lati": 19.69,
   "long": -155.87,
   "elevation": 2523
 },
 {
   "name": "Ibu",
   "country": "Indonesia",
   "type": "Stratovolcano",
   "lati": 1.49,
   "long": 127.63,
   "elevation": 1325
 },
 {
   "name": "Ijen",
   "country": "Indonesia",
   "type": "Stratovolcano",
   "lati": -8.06,
   "long": 114.24,
   "elevation": 2386
 },
 {
   "name": "Iliamna",
   "country": "USA",
   "type": "Stratovolcano",
   "lati": 60.03,
   "long": -153.09,
   "elevation": 3053
 },
 {
   "name": "Iliboleng",
   "country": "Indonesia",
   "type": "Stratovolcano",
   "lati": -8.34,
   "long": 123.26,
   "elevation": 1659
 },
 {
   "name": "Iliniza",
   "country": "Ecuador",
   "type": "Stratovolcano",
   "lati": -0.66,
   "long": -78.71,
   "elevation": 5248
 },
 {
   "name": "Ilopango",
   "country": "El Salvador",
   "type": "Caldera",
   "lati": 13.67,
   "long": -89.05,
   "elevation": 450
 },
 {
   "name": "Ilyinsky",
   "country": "Russia",
   "type": "Stratovolcano",
   "lati": 51.49,
   "long": 157.2,
   "elevation": 1578
 },
 {
   "name": "Ioto (Iwo-jima)",
   "country": "Japan",
   "type": "Caldera",
   "lati": 24.75,
   "long": 141.29,
   "elevation": 161
 },
 {
   "name": "Iraya",
   "country": "Philippines",
   "type": "Stratovolcano",
   "lati": 20.47,
   "long": 122.01,
   "elevation": 1009
 },
 {
   "name": "Irazu",
   "country": "Costa Rica",
   "type": "Stratovolcano",
   "lati": 9.98,
   "long": -83.85,
   "elevation": 3431
 },
 {
   "name": "Isanotski",
   "country": "USA",
   "type": "Stratovolcano",
   "lati": 54.77,
   "long": -163.72,
   "elevation": 2446
 },
 {
   "name": "Izalco",
   "country": "El Salvador",
   "type": "Stratovolcano",
   "lati": 13.81,
   "long": -89.63,
   "elevation": 1950
 },
 {
   "name": "Iztaccihuatl",
   "country": "Mexico",
   "type": "Stratovolcano",
   "lati": 19.18,
   "long": -98.64,
   "elevation": 5286
 },
 {
   "name": "Izu-Tobu",
   "country": "Japan",
   "type": "Pyroclastic Cone",
   "lati": 34.9,
   "long": 139.1,
   "elevation": 581
 },
 {
   "name": "Jailolo",
   "country": "Indonesia",
   "type": "Stratovolcano",
   "lati": 1.08,
   "long": 127.42,
   "elevation": 1130
 },
 {
   "name": "Jefferson",
   "country": "USA",
   "type": "Stratovolcano",
   "lati": 44.67,
   "long": -121.8,
   "elevation": 3199
 },
 {
   "name": "Jordan Craters",
   "country": "USA",
   "type": "Volcanic Field",
   "lati": 43.1,
   "long": -117.4,
   "elevation": 1400
 },
 {
   "name": "Kadovar",
   "country": "Papua New Guinea",
   "type": "Stratovolcano",
   "lati": -3.63,
   "long": 144.63,
   "elevation": 365
 },
 {
   "name": "Kaguyak",
   "country": "United States",
   "type": "Stratovolcano",
   "lati": 58.62,
   "long": -154.06,
   "elevation": 901
 },
 {
   "name": "Kahoolawe",
   "country": "United States",
   "type": "Shield",
   "lati": 20.55,
   "long": -156.57,
   "elevation": 450
 },
 {
   "name": "Kambalny",
   "country": "Russia",
   "type": "Stratovolcano",
   "lati": 51.3,
   "long": 156.87,
   "elevation": 2156
 },
 {
   "name": "Kanaga",
   "country": "United States",
   "type": "Stratovolcano",
   "lati": 51.92,
   "long": -177.17,
   "elevation": 1307
 },
 {
   "name": "Karangetang [Api Siau]",
   "country": "Indonesia",
   "type": "Stratovolcano",
   "lati": 2.78,
   "long": 125.4,
   "elevation": 1784
 },
 {
   "name": "Karisimbi",
   "country": "CongoRwanda",
   "type": "Stratovolcano",
   "lati": -1.51,
   "long": 29.45,
   "elevation": 4507
 },
 {
   "name": "Karthala",
   "country": "Comoros",
   "type": "Shield",
   "lati": -11.75,
   "long": 43.38,
   "elevation": 2361
 },
 {
   "name": "Karymsky",
   "country": "Russia",
   "type": "Stratovolcano",
   "lati": 54.05,
   "long": 159.45,
   "elevation": 1536
 },
 {
   "name": "Katla",
   "country": "Iceland",
   "type": "Fissure vents",
   "lati": 63.63,
   "long": -19.05,
   "elevation": 1512
 },
 {
   "name": "Katmai",
   "country": "United States",
   "type": "Stratovolcano",
   "lati": 58.28,
   "long": -154.96,
   "elevation": 2047
 },
 {
   "name": "Katwe-Kikorongo",
   "country": "Uganda",
   "type": "Volcanic Field",
   "lati": -0.08,
   "long": 29.92,
   "elevation": 1067
 },
 {
   "name": "Kavachi",
   "country": "Solomon Islands",
   "type": "Submarine",
   "lati": -9.02,
   "long": 157.95,
   "elevation": -20
 },
 {
   "name": "Kell",
   "country": "Russia",
   "type": "Stratovolcano",
   "lati": 51.65,
   "long": 157.35,
   "elevation": 900
 },
 {
   "name": "Kelut",
   "country": "Indonesia",
   "type": "Stratovolcano",
   "lati": -7.93,
   "long": 112.31,
   "elevation": 1731
 },
 {
   "name": "Kerinci",
   "country": "Indonesia",
   "type": "Stratovolcano",
   "lati": 1.7,
   "long": 101.26,
   "elevation": 3800
 },
 {
   "name": "Khodutka",
   "country": "Russia",
   "type": "Stratovolcano",
   "lati": 52.06,
   "long": 157.7,
   "elevation": 2090
 },
 {
   "name": "Kialagvik",
   "country": "United States",
   "type": "Stratovolcano",
   "lati": 57.2,
   "long": -156.75,
   "elevation": 1677
 },
 {
   "name": "Kick 'em Jenny",
   "country": "Grenada",
   "type": "Submarine",
   "lati": 12.3,
   "long": -61.64,
   "elevation": -185
 },
 {
   "name": "Kikai",
   "country": "Japan",
   "type": "Caldera",
   "lati": 30.79,
   "long": 130.31,
   "elevation": 704
 },
 {
   "name": "Kikhpinych",
   "country": "Russia",
   "type": "Stratovolcano",
   "lati": 54.49,
   "long": 160.25,
   "elevation": 1552
 },
 {
   "name": "Kilauea",
   "country": "United States",
   "type": "Shield",
   "lati": 19.42,
   "long": -155.29,
   "elevation": 1222
 },
 {
   "name": "Kilimanjaro",
   "country": "Tanzania",
   "type": "Stratovolcano",
   "lati": 3.07,
   "long": 37.35,
   "elevation": 5895
 },
 {
   "name": "Kirishima",
   "country": "Japan",
   "type": "Stratovolcano",
   "lati": 31.93,
   "long": 130.86,
   "elevation": 1700
 },
 {
   "name": "Kliuchevskoi",
   "country": "Russia",
   "type": "Stratovolcano",
   "lati": 56.06,
   "long": 160.64,
   "elevation": 4835
 },
 {
   "name": "Komagatake",
   "country": "Japan",
   "type": "Stratovolcano",
   "lati": 42.06,
   "long": 140.68,
   "elevation": 1131
 },
 {
   "name": "Kone",
   "country": "Ethiopia",
   "type": "Caldera",
   "lati": 8.8,
   "long": 39.69,
   "elevation": 1619
 },
 {
   "name": "Koryaksky",
   "country": "Russia",
   "type": "Stratovolcano",
   "lati": 53.32,
   "long": 158.69,
   "elevation": 3456
 },
 {
   "name": "Koshelev",
   "country": "Russia",
   "type": "Stratovolcano",
   "lati": 51.36,
   "long": 156.75,
   "elevation": 1812
 },
 {
   "name": "Krafla",
   "country": "Iceland",
   "type": "Caldera",
   "lati": 65.73,
   "long": -16.78,
   "elevation": 818
 },
 {
   "name": "Krakatau",
   "country": "Indonesia",
   "type": "Stratovolcano",
   "lati": -6.1,
   "long": 105.42,
   "elevation": 813
 },
 {
   "name": "Krasheninnikov",
   "country": "Russia",
   "type": "Stratovolcano",
   "lati": 54.59,
   "long": 160.27,
   "elevation": 1856
 },
 {
   "name": "Kronotsky",
   "country": "Russia",
   "type": "Stratovolcano",
   "lati": 54.75,
   "long": 160.53,
   "elevation": 3528
 },
 {
   "name": "Ksudach",
   "country": "Russia",
   "type": "Stratovolcano",
   "lati": 51.8,
   "long": 157.53,
   "elevation": 1079
 },
 {
   "name": "Kukak",
   "country": "United States",
   "type": "Stratovolcano",
   "lati": 58.45,
   "long": -154.36,
   "elevation": 2043
 },
 {
   "name": "Kusatsu-Shirane",
   "country": "Japan",
   "type": "Stratovolcano",
   "lati": 36.64,
   "long": 138.54,
   "elevation": 2171
 },
 {
   "name": "Kutcharo",
   "country": "Japan",
   "type": "Caldera",
   "lati": 43.61,
   "long": 144.44,
   "elevation": 999
 },
 {
   "name": "Kuttara",
   "country": "Japan",
   "type": "Stratovolcano",
   "lati": 42.49,
   "long": 141.16,
   "elevation": 581
 },
 {
   "name": "Kuwae",
   "country": "Vanuatu",
   "type": "Caldera",
   "lati": -16.83,
   "long": 168.54,
   "elevation": -2
 },
 {
   "name": "La Palma",
   "country": "Spain",
   "type": "Stratovolcano",
   "lati": 28.57,
   "long": -17.83,
   "elevation": 2426
 },
 {
   "name": "Lamington",
   "country": "Papua New Guinea",
   "type": "Stratovolcano",
   "lati": -8.95,
   "long": 148.15,
   "elevation": 1680
 },
 {
   "name": "Langila",
   "country": "Papua New Guinea",
   "type": "Stratovolcano",
   "lati": -5.53,
   "long": 148.42,
   "elevation": 1330
 },
 {
   "name": "Lanzarote",
   "country": "Spain",
   "type": "Fissure vents",
   "lati": 29.03,
   "long": -13.63,
   "elevation": 670
 },
 {
   "name": "Láscar",
   "country": "Chile",
   "type": "Stratovolcano",
   "lati": -23.37,
   "long": -67.73,
   "elevation": 5592
 },
 {
   "name": "Lereboleng",
   "country": "Indonesia",
   "type": "Complex Volcano",
   "lati": -8.36,
   "long": 122.84,
   "elevation": 1117
 },
 {
   "name": "Lewotobi",
   "country": "Indonesia",
   "type": "Stratovolcano",
   "lati": -8.54,
   "long": 122.78,
   "elevation": 1703
 },
 {
   "name": "Lewotolo",
   "country": "Indonesia",
   "type": "Stratovolcano",
   "lati": -8.27,
   "long": 123.51,
   "elevation": 1423
 },
 {
   "name": "Liamuiga",
   "country": "St. Kitts and Nevis",
   "type": "Stratovolcano",
   "lati": 17.37,
   "long": -62.8,
   "elevation": 1156
 },
 {
   "name": "Lipari",
   "country": "Italy",
   "type": "Stratovolcano",
   "lati": 38.48,
   "long": 14.95,
   "elevation": 602
 },
 {
   "name": "Little Sitkin",
   "country": "United States",
   "type": "Stratovolcano",
   "lati": 51.95,
   "long": 178.54,
   "elevation": 1174
 },
 {
   "name": "Loihi",
   "country": "United States",
   "type": "Submarine",
   "lati": 18.92,
   "long": -155.27,
   "elevation": -975
 },
 {
   "name": "Lokon-Empung",
   "country": "Indonesia",
   "type": "Stratovolcano",
   "lati": 1.36,
   "long": 124.79,
   "elevation": 1580
 },
 {
   "name": "Lolo",
   "country": "Papua New Guinea",
   "type": "Stratovolcano",
   "lati": -5.47,
   "long": 150.51,
   "elevation": 805
 },
 {
   "name": "Lolobau",
   "country": "Papua New Guinea",
   "type": "Caldera",
   "lati": -4.92,
   "long": 151.16,
   "elevation": 858
 },
 {
   "name": "Loloru",
   "country": "Papua New Guinea",
   "type": "Stratovolcano",
   "lati": -6.52,
   "long": 155.62,
   "elevation": 1887
 },
 {
   "name": "Long Island",
   "country": "Papua New Guinea",
   "type": "Complex Volcano",
   "lati": -5.36,
   "long": 147.12,
   "elevation": 1280
 },
 {
   "name": "Longonot",
   "country": "Kenya",
   "type": "Stratovolcano",
   "lati": -0.91,
   "long": 36.45,
   "elevation": 2776
 },
 {
   "name": "Lopevi",
   "country": "Vanuatu",
   "type": "Stratovolcano",
   "lati": -16.51,
   "long": 168.35,
   "elevation": 1413
 },
 {
   "name": "Maderas",
   "country": "Nicaragua",
   "type": "Stratovolcano",
   "lati": 11.45,
   "long": -85.52,
   "elevation": 1394
 },
 {
   "name": "Mageik",
   "country": "United States",
   "type": "Stratovolcano",
   "lati": 58.2,
   "long": -155.25,
   "elevation": 2165
 },
 {
   "name": "Mahawu",
   "country": "Indonesia",
   "type": "Stratovolcano",
   "lati": 1.36,
   "long": 124.86,
   "elevation": 1324
 },
 {
   "name": "Makian",
   "country": "Indonesia",
   "type": "Stratovolcano",
   "lati": 0.32,
   "long": 127.4,
   "elevation": 1357
 },
 {
   "name": "Maly Semiachik",
   "country": "Russia",
   "type": "Caldera",
   "lati": 54.13,
   "long": 159.67,
   "elevation": 1560
 },
 {
   "name": "Manam",
   "country": "Papua New Guinea",
   "type": "Stratovolcano",
   "lati": -4.08,
   "long": 145.04,
   "elevation": 1807
 },
 {
   "name": "Mariveles",
   "country": "Philippines",
   "type": "Stratovolcano",
   "lati": 14.52,
   "long": 120.47,
   "elevation": 1388
 },
 {
   "name": "Marsabit",
   "country": "Kenya",
   "type": "Shield",
   "lati": 2.32,
   "long": 37.97,
   "elevation": 1707
 },
 {
   "name": "Masaya",
   "country": "Nicaragua",
   "type": "Caldera",
   "lati": 11.98,
   "long": -86.16,
   "elevation": 635
 },
 {
   "name": "Mashkovtsev",
   "country": "Russia",
   "type": "Stratovolcano",
   "lati": 51.1,
   "long": 156.72,
   "elevation": 503
 },
 {
   "name": "Mashu",
   "country": "Japan",
   "type": "Caldera",
   "lati": 43.57,
   "long": 144.57,
   "elevation": 855
 },
 {
   "name": "Mauna Kea",
   "country": "United States",
   "type": "Shield",
   "lati": 19.82,
   "long": -155.47,
   "elevation": 4205
 },
 {
   "name": "Mauna Loa",
   "country": "United States",
   "type": "Shield",
   "lati": 19.48,
   "long": -155.61,
   "elevation": 4170
 },
 {
   "name": "Mayon",
   "country": "Philippines",
   "type": "Stratovolcano",
   "lati": 13.26,
   "long": 123.69,
   "elevation": 2462
 },
 {
   "name": "McDonald Islands",
   "country": "Australia",
   "type": "Complex Volcano",
   "lati": -53.03,
   "long": 72.6,
   "elevation": 230
 },
 {
   "name": "McLoughlin",
   "country": "United States",
   "type": "Stratovolcano",
   "lati": 42.45,
   "long": -122.32,
   "elevation": 2894
 },
 {
   "name": "Menan Buttes",
   "country": "United States",
   "type": "Tuff Ring",
   "lati": 43.7,
   "long": -111.96,
   "elevation": 1713
 },
 {
   "name": "Menengai",
   "country": "Kenya",
   "type": "Shield",
   "lati": -0.2,
   "long": 36.07,
   "elevation": 2278
 },
 {
   "name": "Merapi",
   "country": "Indonesia",
   "type": "Stratovolcano",
   "lati": -7.54,
   "long": 110.44,
   "elevation": 2911
 },
 {
   "name": "Merbabu",
   "country": "Indonesia",
   "type": "Stratovolcano",
   "lati": -7.45,
   "long": 110.43,
   "elevation": 3145
 },
 {
   "name": "Meru",
   "country": "Tanzania",
   "type": "Stratovolcano",
   "lati": -3.25,
   "long": 36.75,
   "elevation": 4565
 },
 {
   "name": "Methana",
   "country": "Greece",
   "type": "Dome",
   "lati": 37.62,
   "long": 23.34,
   "elevation": 760
 },
 {
   "name": "Metis Shoal",
   "country": "Tonga",
   "type": "Submarine",
   "lati": -19.18,
   "long": -174.87,
   "elevation": 43
 },
 {
   "name": "Michael",
   "country": "United Kingdom",
   "type": "Stratovolcano",
   "lati": -57.78,
   "long": -26.45,
   "elevation": 990
 },
 {
   "name": "Michoacan-Guanajuato",
   "country": "Mexico",
   "type": "Cinder Cone",
   "lati": 19.85,
   "long": -101.75,
   "elevation": 3860
 },
 {
   "name": "MÃ­los",
   "country": "Greece",
   "type": "Stratovolcano",
   "lati": 36.7,
   "long": 24.44,
   "elevation": 751
 },
 {
   "name": "Miyake-jima",
   "country": "Japan",
   "type": "Stratovolcano",
   "lati": 34.08,
   "long": 139.53,
   "elevation": 815
 },
 {
   "name": "Moffett",
   "country": "United States",
   "type": "Stratovolcano",
   "lati": 51.94,
   "long": -176.75,
   "elevation": 1196
 },
 {
   "name": "Mojanda",
   "country": "Ecuador",
   "type": "Stratovolcano",
   "lati": 0.13,
   "long": -78.27,
   "elevation": 4263
 },
 {
   "name": "Momotombo",
   "country": "Nicaragua",
   "type": "Stratovolcano",
   "lati": 12.42,
   "long": -86.54,
   "elevation": 1297
 },
 {
   "name": "Monaco Bank",
   "country": "Portugal",
   "type": "Submarine",
   "lati": 37.6,
   "long": -25.88,
   "elevation": -197
 },
 {
   "name": "Mono Lake Vol Field",
   "country": "United States",
   "type": "Volcanic Field",
   "lati": 38,
   "long": -119.03,
   "elevation": 2121
 },
 
 {
   "name": "Moti",
   "country": "Indonesia",
   "type": "Stratovolcano",
   "lati": 0.45,
   "long": 127.4,
   "elevation": 950
 },
 {
   "name": "Muria",
   "country": "Indonesia",
   "type": "Stratovolcano",
   "lati": -6.62,
   "long": 110.88,
   "elevation": 1625
 },
 {
   "name": "Nantai",
   "country": "Japan",
   "type": "Stratovolcano",
   "lati": 36.76,
   "long": 139.48,
   "elevation": 2486
 },
 {
   "name": "Nasu",
   "country": "Japan",
   "type": "Stratovolcano",
   "lati": 37.12,
   "long": 139.97,
   "elevation": 1915
 },
 {
   "name": "Navajo Volcanic Field",
   "country": "United States",
   "type": "Volcanic Field",
   "lati": 36.78,
   "long": -109.18,
   "elevation": 2740
 },
 {
   "name": "Negro, Cerro",
   "country": "Nicaragua",
   "type": "Cinder Cone",
   "lati": 12.51,
   "long": -86.7,
   "elevation": 728
 },
 {
   "name": "Nemo Peak",
   "country": "Russia",
   "type": "Caldera",
   "lati": 49.57,
   "long": 154.81,
   "elevation": 1018
 },
 {
   "name": "Nevis Peak",
   "country": "St. Kitts and Nevis",
   "type": "Stratovolcano",
   "lati": 17.15,
   "long": -62.58,
   "elevation": 985
 },
 {
   "name": "Newberry",
   "country": "United States",
   "type": "Shield",
   "lati": 43.72,
   "long": -121.23,
   "elevation": 2434
 },
 {
   "name": "Newer Volcanics Province",
   "country": "Australia",
   "type": "Shield",
   "lati": -37.77,
   "long": 142.5,
   "elevation": 1011
 },
 {
   "name": "Ngauruhoe",
   "country": "New Zealand",
   "type": "Stratovolcano",
   "lati": -39.13,
   "long": 175.64,
   "elevation": 1978
 },
 {
   "name": "Nikko-Shirane",
   "country": "Japan",
   "type": "Shield",
   "lati": 36.8,
   "long": 139.38,
   "elevation": 2578
 },
 {
   "name": "Nipesotsu-Maruyama",
   "country": "Japan",
   "type": "Stratovolcano",
   "lati": 43.45,
   "long": 143.04,
   "elevation": 2013
 },
 {
   "name": "Nisyros",
   "country": "Greece",
   "type": "Stratovolcano",
   "lati": 36.59,
   "long": 27.16,
   "elevation": 698
 },
 {
   "name": "Nyambeni Hills",
   "country": "Kenya",
   "type": "Shield",
   "lati": 0.23,
   "long": 37.87,
   "elevation": 750
 },
 {
   "name": "Nyamuragira",
   "country": "Democratic Republic of Congo",
   "type": "Shield",
   "lati": -1.41,
   "long": 29.2,
   "elevation": 3058
 },
 {
   "name": "Nyiragongo",
   "country": "Democratic Republic of Congo",
   "type": "Stratovolcano",
   "lati": -1.52,
   "long": 29.25,
   "elevation": 3470
 },
 {
   "name": "Oahu",
   "country": "United States",
   "type": "Shield",
   "lati": 21.44,
   "long": -158,
   "elevation": 1220
 },
 {
   "name": "Ojos del Salado",
   "country": "Chile/Argentina",
   "type": "Stratovolcano",
   "lati": -27.12,
   "long": -68.55,
   "elevation": 6887
 },
 {
   "name": "Okataina",
   "country": "New Zealand",
   "type": "Dome",
   "lati": -38.12,
   "long": 176.5,
   "elevation": 1111
 },
 {
   "name": "Okmok",
   "country": "United States",
   "type": "Shield",
   "lati": 53.43,
   "long": -168.13,
   "elevation": 1073
 },
 {
   "name": "Oku Volcanic Field",
   "country": "Cameroon",
   "type": "Stratovolcano",
   "lati": 6.25,
   "long": 10.5,
   "elevation": 3011
 },
 {
   "name": "Ol Doinyo Lengai",
   "country": "Tanzania",
   "type": "Stratovolcano",
   "lati": -2.76,
   "long": 39.91,
   "elevation": 2962
 },
 {
   "name": "Opala",
   "country": "Russia",
   "type": "Caldera",
   "lati": 52.54,
   "long": 157.34,
   "elevation": 1776
 },
 {
   "name": "Oraefajokull",
   "country": "Iceland",
   "type": "Stratovolcano",
   "lati": 64,
   "long": -16.65,
   "elevation": 2119
 },
 {
   "name": "Oshima",
   "country": "Japan",
   "type": "Stratovolcano",
   "lati": 34.72,
   "long": 139.4,
   "elevation": 764
 },
 {
   "name": "Pacaya",
   "country": "Guatemala",
   "type": "Complex Volcano",
   "lati": 14.38,
   "long": -90.6,
   "elevation": 2552
 },
 {
   "name": "Pagan",
   "country": "United States",
   "type": "Stratovolcano",
   "lati": 18.13,
   "long": 145.8,
   "elevation": 570
 },
 {
   "name": "Pago",
   "country": "Papua New Guinea",
   "type": "Caldera",
   "lati": -5.58,
   "long": 150.52,
   "elevation": 742
 },
 {
   "name": "Papandayan",
   "country": "Indonesia",
   "type": "Stratovolcano",
   "lati": -7.32,
   "long": 107.73,
   "elevation": 2665
 },
 {
   "name": "Paricutin",
   "country": "Mexico",
   "type": "Cinder Cone",
   "lati": 19.5,
   "long": -102.2,
   "elevation": 3170
 },
 {
   "name": "Parinacota",
   "country": "Chile/Bolivia",
   "type": "Stratovolcano",
   "lati": -18.17,
   "long": -69.15,
   "elevation": 6348
 },
 {
   "name": "Pauzhetka",
   "country": "Russia",
   "type": "Dome",
   "lati": 51.45,
   "long": 156.97,
   "elevation": 1070
 },
 {
   "name": "Pavlof",
   "country": "United States",
   "type": "Stratovolcano",
   "lati": 55.42,
   "long": -161.89,
   "elevation": 2519
 },
 {
   "name": "Pavlof Sister",
   "country": "United States",
   "type": "Stratovolcano",
   "lati": 55.45,
   "long": -161.84,
   "elevation": 2142
 },
 {
   "name": "Pelee",
   "country": "France",
   "type": "Stratovolcano",
   "lati": 14.82,
   "long": -61.17,
   "elevation": 1397
 },
 {
   "name": "Peuet Sague",
   "country": "Indonesia",
   "type": "Complex Volcano",
   "lati": 4.91,
   "long": 96.33,
   "elevation": 2801
 },
 {
   "name": "Pico",
   "country": "Portugal",
   "type": "Stratovolcano",
   "lati": 38.47,
   "long": -28.4,
   "elevation": 2351
 },
 {
   "name": "Pilas, Las",
   "country": "Nicaragua",
   "type": "Stratovolcano",
   "lati": 11.54,
   "long": -85.62,
   "elevation": 1700
 },
 {
   "name": "Pinacate",
   "country": "Mexico",
   "type": "Cinder Cone",
   "lati": 31.77,
   "long": -113.5,
   "elevation": 1200
 },
 {
   "name": "Pinatubo",
   "country": "Phillippines",
   "type": "Stratovolcano",
   "lati": 15.13,
   "long": 120.35,
   "elevation": 1486
 },
 {
   "name": "Pisgah Lava Field",
   "country": "United States",
   "type": "Volcanic Field",
   "lati": 34.75,
   "long": -116.63,
   "elevation": 1495
 },
 {
   "name": "Piton de la Fournaise",
   "country": "France",
   "type": "Shield",
   "lati": -21.23,
   "long": 55.71,
   "elevation": 2631
 },
 {
   "name": "Poas",
   "country": "Costa Rica",
   "type": "Stratovolcano",
   "lati": 10.2,
   "long": -84.23,
   "elevation": 2708
 },
 {
   "name": "Popocatepetl",
   "country": "Mexico",
   "type": "Stratovolcano",
   "lati": 19.02,
   "long": -98.62,
   "elevation": 5246
 },
 {
   "name": "Prevo Peak",
   "country": "Russia",
   "type": "Stratovolcano",
   "lati": 47.02,
   "long": 152.12,
   "elevation": 1360
 },
 {
   "name": "Purace",
   "country": "Colombia",
   "type": "Stratovolcano",
   "lati": 2.32,
   "long": -76.4,
   "elevation": 4650
 },
 {
   "name": "Quill, The",
   "country": "Netherlands",
   "type": "Stratovolcano",
   "lati": 17.48,
   "long": -62.96,
   "elevation": 601
 },
 {
   "name": "Rabaul",
   "country": "Papua New Guinea",
   "type": "Shield",
   "lati": -4.27,
   "long": 152.2,
   "elevation": 688
 },
 {
   "name": "Ragang",
   "country": "Phillippines",
   "type": "Stratovolcano",
   "lati": 7.7,
   "long": 124.5,
   "elevation": 2815
 },
 {
   "name": "Raikoke",
   "country": "Russia",
   "type": "Stratovolcano",
   "lati": 48.29,
   "long": 153.25,
   "elevation": 551
 },
 {
   "name": "Rainier",
   "country": "United States",
   "type": "Stratovolcano",
   "lati": 46.85,
   "long": -121.76,
   "elevation": 4392
 },
 {
   "name": "Rajabasa",
   "country": "Indonesia",
   "type": "Stratovolcano",
   "lati": -5.78,
   "long": 105.63,
   "elevation": 1281
 },
 {
   "name": "Raoul",
   "country": "New Zealand",
   "type": "Stratovolcano",
   "lati": -29.27,
   "long": -177.92,
   "elevation": 516
 },
 {
   "name": "Rasshua",
   "country": "Russia",
   "type": "Stratovolcano",
   "lati": 47.77,
   "long": 153.02,
   "elevation": 956
 },
 {
   "name": "Raung",
   "country": "Indonesia",
   "type": "Stratovolcano",
   "lati": -8.13,
   "long": 114.04,
   "elevation": 3332
 },
 {
   "name": "Rausu",
   "country": "Japan",
   "type": "Stratovolcano",
   "lati": 44.07,
   "long": 145.13,
   "elevation": 1660
 },
 {
   "name": "Redoubt",
   "country": "United States",
   "type": "Stratovolcano",
   "lati": 60.49,
   "long": -152.74,
   "elevation": 3108
 },
 {
   "name": "Reventador",
   "country": "Ecuador",
   "type": "Stratovolcano",
   "lati": -0.08,
   "long": -77.66,
   "elevation": 3562
 },
 {
   "name": "Rincon de la Vieja",
   "country": "Costa Rica",
   "type": "Complex Volcano",
   "lati": 10.83,
   "long": -85.32,
   "elevation": 1916
 },
 {
   "name": "Roundtop",
   "country": "United States",
   "type": "Stratovolcano",
   "lati": 54.8,
   "long": -163.59,
   "elevation": 1871
 },
 {
   "name": "Ruapehu",
   "country": "New Zealand",
   "type": "Stratovolcano",
   "lati": -39.28,
   "long": 175.57,
   "elevation": 2797
 },
 {
   "name": "Rudakov",
   "country": "Russia",
   "type": "Stratovolcano",
   "lati": 45.88,
   "long": 149.83,
   "elevation": 542
 },
 {
   "name": "Ruiz, Nevado del",
   "country": "Colombia",
   "type": "Stratovolcano",
   "lati": 4.89,
   "long": -75.32,
   "elevation": 5321
 },
 {
   "name": "Rumble IV",
   "country": "New Zealand",
   "type": "Submarine",
   "lati": -36.13,
   "long": 178.05,
   "elevation": 500
 },
 {
   "name": "Saba",
   "country": "Netherlands",
   "type": "Stratovolcano",
   "lati": 17.63,
   "long": -63.23,
   "elevation": 887
 },
 {
   "name": "Sabancaya",
   "country": "Peru",
   "type": "Stratovolcano",
   "lati": -15.78,
   "long": -71.85,
   "elevation": 5967
 },
 {
   "name": "Sakar",
   "country": "Papua New Guinea",
   "type": "Stratovolcano",
   "lati": -5.41,
   "long": 148.09,
   "elevation": 992
 },
 {
   "name": "Sakura-jima",
   "country": "Japan",
   "type": "Stratovolcano",
   "lati": 31.59,
   "long": 130.66,
   "elevation": 1117
 },
 {
   "name": "Salak",
   "country": "Indonesia",
   "type": "Stratovolcano",
   "lati": -6.72,
   "long": 106.73,
   "elevation": 2211
 },
 {
   "name": "San Cristobal",
   "country": "Nicaragua",
   "type": "Stratovolcano",
   "lati": 12.7,
   "long": -87,
   "elevation": 1745
 },
 {
   "name": "San Salvador",
   "country": "El Salvador",
   "type": "Stratovolcano",
   "lati": 13.73,
   "long": -89.29,
   "elevation": 1893
 },
 {
   "name": "San Vicente",
   "country": "Cape Verde Islands",
   "type": "Stratovolcano",
   "lati": 16.9,
   "long": -25,
   "elevation": 697
 },
 {
   "name": "Sanford",
   "country": "United States",
   "type": "Shield",
   "lati": 62.22,
   "long": -144.13,
   "elevation": 4949
 },
 {
   "name": "Sangay",
   "country": "Ecuador",
   "type": "Stratovolcano",
   "lati": -2,
   "long": -78.34,
   "elevation": 5230
 },
 {
   "name": "Santa Ana",
   "country": "El Salvador",
   "type": "Stratovolcano",
   "lati": 13.85,
   "long": -89.63,
   "elevation": 2381
 },
 {
   "name": "Santa Maria",
   "country": "Guatemala",
   "type": "Stratovolcano",
   "lati": 14.76,
   "long": -91.55,
   "elevation": 3772
 },
 {
   "name": "Santorini",
   "country": "Greece",
   "type": "Shield",
   "lati": 36.4,
   "long": 25.4,
   "elevation": 367
 },
 {
   "name": "Sarychev Peak",
   "country": "Russia",
   "type": "Stratovolcano",
   "lati": 48.09,
   "long": 153.2,
   "elevation": 1496
 },
 {
   "name": "Savo",
   "country": "Solomon Islands",
   "type": "Stratovolcano",
   "lati": -9.13,
   "long": 159.82,
   "elevation": 485
 },
 {
   "name": "Segula",
   "country": "United States",
   "type": "Stratovolcano",
   "lati": 52.02,
   "long": 178.14,
   "elevation": 1160
 },
 {
   "name": "Semeru",
   "country": "Indonesia",
   "type": "Stratovolcano",
   "lati": -8.11,
   "long": 112.92,
   "elevation": 3676
 },
 {
   "name": "Semisopochnoi",
   "country": "United States",
   "type": "Stratovolcano",
   "lati": 51.93,
   "long": 179.58,
   "elevation": 1221
 },
 {
   "name": "Sete Cidades",
   "country": "Portugal",
   "type": "Stratovolcano",
   "lati": 37.87,
   "long": -25.78,
   "elevation": 856
 },
 {
   "name": "Shasta",
   "country": "United States",
   "type": "Stratovolcano",
   "lati": 41.41,
   "long": -122.19,
   "elevation": 4317
 },
 {
   "name": "Monowai Seamount",
   "country": "New Zealand",
   "type": "Submarine",
   "lati": -25.89,
   "long": -177.19,
   "elevation": -132
 },
 {
   "name": "Sheveluch",
   "country": "Russia",
   "type": "Stratovolcano",
   "lati": 56.65,
   "long": 161.36,
   "elevation": 3283
 },
 {
   "name": "Shikotsu",
   "country": "Japan",
   "type": "Caldera",
   "lati": 42.69,
   "long": 141.38,
   "elevation": 1320
 },
 {
   "name": "Shiretoko-Iwo-zan",
   "country": "Japan",
   "type": "Stratovolcano",
   "lati": 44.13,
   "long": 145.17,
   "elevation": 1563
 },
 {
   "name": "Shishaldin",
   "country": "United States",
   "type": "Stratovolcano",
   "lati": 54.76,
   "long": -163.97,
   "elevation": 2857
 },
 {
   "name": "Sinarka",
   "country": "Russia",
   "type": "Stratovolcano",
   "lati": 48.88,
   "long": 154.18,
   "elevation": 934
 },
 {
   "name": "Smirnov",
   "country": "Russia",
   "type": "Stratovolcano",
   "lati": 44.42,
   "long": 146.14,
   "elevation": 1189
 },
 {
   "name": "Sollipulli",
   "country": "Chile",
   "type": "Caldera",
   "lati": -38.97,
   "long": -71.52,
   "elevation": 2282
 },
 {
   "name": "Soputan",
   "country": "Indonesia",
   "type": "Stratovolcano",
   "lati": 1.11,
   "long": 124.73,
   "elevation": 1784
 },
 {
   "name": "Soufriere Guadeloupe",
   "country": "France",
   "type": "Stratovolcano",
   "lati": 16.05,
   "long": -61.67,
   "elevation": 1467
 },
 {
   "name": "Soufrière Hills",
   "country": "United Kingdom",
   "type": "Stratovolcano",
   "lati": 16.72,
   "long": -62.18,
   "elevation": 915
 },
 {
   "name": "Soufrière St. Vincent",
   "country": "St. Vincent",
   "type": "Stratovolcano",
   "lati": 13.33,
   "long": -61.18,
   "elevation": 1220
 },
 {
   "name": "South Island",
   "country": "Kenya",
   "type": "",
   "lati": 2.63,
   "long": 36.6,
   "elevation": 800
 },
 {
   "name": "SP Mountain",
   "country": "United States",
   "type": "Cinder Cone",
   "lati": 35.6,
   "long": -111.6,
   "elevation": 2141
 },
 {
   "name": "Spurr",
   "country": "United States",
   "type": "Stratovolcano",
   "lati": 61.3,
   "long": -152.25,
   "elevation": 3374
 },
 {
   "name": "Srednii",
   "country": "Russia",
   "type": "Submarine",
   "lati": 47.6,
   "long": 152.92,
   "elevation": 36
 },
 {
   "name": "Steller",
   "country": "United States",
   "type": "Stratovolcano",
   "lati": 58.4,
   "long": -154.4,
   "elevation": 2272
 },
 {
   "name": "Stromboli",
   "country": "Italy",
   "type": "Stratovolcano",
   "lati": 38.79,
   "long": 15.21,
   "elevation": 924
 },
 {
   "name": "Sumaco",
   "country": "Ecuador",
   "type": "Stratovolcano",
   "lati": -0.54,
   "long": -77.63,
   "elevation": 3990
 },
 {
   "name": "Sumbing",
   "country": "Indonesia",
   "type": "Stratovolcano",
   "lati": -7.38,
   "long": 110.07,
   "elevation": 3371
 },
 {
   "name": "Sundoro",
   "country": "Indonesia",
   "type": "Stratovolcano",
   "lati": -7.3,
   "long": 109.99,
   "elevation": 3136
 },
 {
   "name": "Sunset Craters",
   "country": "United States",
   "type": "Cinder Cone",
   "lati": 35.37,
   "long": -111.5,
   "elevation": 2447
 },
 {
   "name": "Suswa",
   "country": "Kenya",
   "type": "Shield",
   "lati": -1.18,
   "long": 36.35,
   "elevation": 2356
 },
 {
   "name": "Suwanose-jima",
   "country": "Japan",
   "type": "Stratovolcano",
   "lati": 29.64,
   "long": 129.72,
   "elevation": 799
 },
 {
   "name": "Taal",
   "country": "Philippines",
   "type": "Caldera",
   "lati": 14,
   "long": 120.99,
   "elevation": 311
 },
 {
   "name": "Talang",
   "country": "Indonesia",
   "type": "Stratovolcano",
   "lati": -0.98,
   "long": 100.68,
   "elevation": 2597
 },
 {
   "name": "Tambora",
   "country": "Indonesia",
   "type": "Stratovolcano",
   "lati": -8.25,
   "long": 118,
   "elevation": 2850
 },
 {
   "name": "Tanaga and Takawangha",
   "country": "United States",
   "type": "Stratovolcano",
   "lati": 51.89,
   "long": -178.15,
   "elevation": 1806
 },
 {
   "name": "Tangkubanparahu",
   "country": "Indonesia",
   "type": "Stratovolcano",
   "lati": -6.77,
   "long": 107.6,
   "elevation": 2084
 },
 {
   "name": "Tao-Rusyr Caldera",
   "country": "Russia",
   "type": "Stratovolcano",
   "lati": 49.35,
   "long": 154.7,
   "elevation": 1325
 },
 {
   "name": "Tarso Voon",
   "country": "Chad",
   "type": "Stratovolcano",
   "lati": 20.92,
   "long": 17.28,
   "elevation": 3100
 },
 {
   "name": "Telica Volcano",
   "country": "Nicaragua",
   "type": "Stratovolcano",
   "lati": 12.6,
   "long": -86.85,
   "elevation": 1010
 },
 {
   "name": "Tenerife",
   "country": "Spain",
   "type": "Stratovolcano",
   "lati": 28.27,
   "long": -16.64,
   "elevation": 3715
 },
 {
   "name": "Tengger Caldera and Bromo",
   "country": "Indonesia",
   "type": "Stratovolcano",
   "lati": -7.94,
   "long": 112.95,
   "elevation": 2329
 },
 {
   "name": "Three Fingered Jack",
   "country": "United States",
   "type": "Stratovolcano",
   "lati": 44.5,
   "long": -121.8,
   "elevation": 2390
 },
 {
   "name": "Three Sisters",
   "country": "United States",
   "type": "Stratovolcano",
   "lati": 44.1,
   "long": -121.77,
   "elevation": 3100
 },
 {
   "name": "Thule Islands",
   "country": "United Kingdom",
   "type": "Stratovolcano",
   "lati": -59.45,
   "long": -27.37,
   "elevation": 1075
 },
 {
   "name": "Tiatia",
   "country": "Russia",
   "type": "Stratovolcano",
   "lati": 44.35,
   "long": 146.26,
   "elevation": 1819
 },
 {
   "name": "Toba",
   "country": "Indonesia",
   "type": "Caldera",
   "lati": 2.58,
   "long": 98.83,
   "elevation": 2157
 },
 {
   "name": "Todoko-Ranu",
   "country": "Indonesia",
   "type": "Caldera",
   "lati": 1.25,
   "long": 127.47,
   "elevation": 979
 },
 {
   "name": "Tokachi",
   "country": "Japan",
   "type": "",
   "lati": 43.42,
   "long": 142.69,
   "elevation": 2077
 },
 {
   "name": "Tolbachik",
   "country": "Russia",
   "type": "Stratovolcano",
   "lati": 55.83,
   "long": 160.33,
   "elevation": 3682
 },
 {
   "name": "Tolimán",
   "country": "Guatemala",
   "type": "Stratovolcano",
   "lati": 14.61,
   "long": -91.19,
   "elevation": 3158
 },
 {
   "name": "Towada",
   "country": "Japan",
   "type": "Caldera",
   "lati": 40.47,
   "long": 140.92,
   "elevation": 1159
 },
 {
   "name": "Traitor's Head",
   "country": "Vanuatu",
   "type": "Stratovolcano",
   "lati": -18.75,
   "long": 169.23,
   "elevation": 1881
 },
 {
   "name": "Tri Sestry",
   "country": "Russia",
   "type": "Stratovolcano",
   "lati": 45.93,
   "long": 149.92,
   "elevation": 998
 },
 {
   "name": "Tristan da Cunha",
   "country": "United Kingdom",
   "type": "Shield",
   "lati": -37.09,
   "long": -12.28,
   "elevation": 2060
 },
 {
   "name": "Tsurumi",
   "country": "Japan",
   "type": "Dome",
   "lati": 33.28,
   "long": 131.43,
   "elevation": 1584
 },
 {
   "name": "Tungurahua",
   "country": "Ecuador",
   "type": "Stratovolcano",
   "lati": -1.47,
   "long": -78.44,
   "elevation": 2011
 },
 {
   "name": "Ubehebe Craters",
   "country": "United States",
   "type": "Maar",
   "lati": 37.02,
   "long": -117.45,
   "elevation": 752
 },
 {
   "name": "Ubinas",
   "country": "Peru",
   "type": "Stratovolcano",
   "lati": -16.36,
   "long": -70.9,
   "elevation": 5672
 },
 {
   "name": "Udina",
   "country": "Russia",
   "type": "Stratovolcano",
   "lati": 55.76,
   "long": 160.53,
   "elevation": 2923
 },
 {
   "name": "Ugashik and Peulik",
   "country": "United States",
   "type": "Stratovolcano",
   "lati": 57.75,
   "long": -156.37,
   "elevation": 1474
 },
 {
   "name": "Uinkaret Volcanic Field",
   "country": "United States",
   "type": "Volcanic Field",
   "lati": 36.38,
   "long": -113.13,
   "elevation": 1555
 },
 {
   "name": "Ulawun",
   "country": "Papua New Guinea",
   "type": "Stratovolcano",
   "lati": -5.05,
   "long": 151.33,
   "elevation": 2334
 },
 {
   "name": "Umboi",
   "country": "Papua New Guinea",
   "type": "Complex Volcano",
   "lati": -5.59,
   "long": 147.88,
   "elevation": 1548
 },
 {
   "name": "Undara",
   "country": "Australia",
   "type": "Shield",
   "lati": -18.25,
   "long": 144.75,
   "elevation": 1020
 },
 {
   "name": "Ungaran and Telomoyo",
   "country": "Indonesia",
   "type": "",
   "lati": -7.18,
   "long": 110.33,
   "elevation": 2050
 },
 {
   "name": "Unzen",
   "country": "Japan",
   "type": "Complex Volcano",
   "lati": 32.76,
   "long": 130.29,
   "elevation": 1500
 },
 {
   "name": "Urataman",
   "country": "Russia",
   "type": "Somma Volcano",
   "lati": 47.12,
   "long": 152.25,
   "elevation": 678
 },
 {
   "name": "Ushishur",
   "country": "Russia",
   "type": "Caldera",
   "lati": 47.52,
   "long": 152.8,
   "elevation": 401
 },
 {
   "name": "Usu",
   "country": "Japan",
   "type": "Stratovolcano",
   "lati": 42.54,
   "long": 140.84,
   "elevation": 737
 },
 {
   "name": "Uzon",
   "country": "Russia",
   "type": "Caldera",
   "lati": 54.5,
   "long": 159.97,
   "elevation": 1617
 },
 {
   "name": "Veniaminof",
   "country": "United States",
   "type": "Stratovolcano",
   "lati": 56.17,
   "long": -159.38,
   "elevation": 2507
 },
 {
   "name": "Vernadskii Ridge",
   "country": "Russia",
   "type": "Cinder Cone",
   "lati": 50.55,
   "long": 155.97,
   "elevation": 1183
 },
 {
   "name": "Vesuvius",
   "country": "Italy",
   "type": "Somma Volcano",
   "lati": 40.82,
   "long": 14.43,
   "elevation": 1281
 },
 {
   "name": "Villarrica",
   "country": "Chile",
   "type": "Stratovolcano",
   "lati": -39.42,
   "long": -71.93,
   "elevation": 2847
 },
 {
   "name": "Vilyuchik",
   "country": "Russia",
   "type": "Stratovolcano",
   "lati": 52.7,
   "long": 158.28,
   "elevation": 2173
 },
 {
   "name": "Visoke",
   "country": "Congo/Rwanda",
   "type": "Stratovolcano",
   "lati": -1.47,
   "long": 29.49,
   "elevation": 3711
 },
 {
   "name": "Vsevidof and Recheschnoi Volcanoes",
   "country": "United States",
   "type": "Stratovolcano",
   "lati": 53.13,
   "long": -168.69,
   "elevation": 2149
 },
 {
   "name": "Vulcano",
   "country": "Italy",
   "type": "",
   "lati": 38.4,
   "long": 14.96,
   "elevation": 500
 },
 {
   "name": "Washington",
   "country": "United States",
   "type": "Shield",
   "lati": 44.3,
   "long": -121.8,
   "elevation": 2376
 },
 {
   "name": "Wau-en-Namus",
   "country": "Libya",
   "type": "Caldera",
   "lati": 25.05,
   "long": 17.55,
   "elevation": 547
 },
 {
   "name": "Westdahl",
   "country": "United States",
   "type": "Stratovolcano",
   "lati": 54.52,
   "long": -164.65,
   "elevation": 1654
 },
 {
   "name": "White Island",
   "country": "New Zealand",
   "type": "Stratovolcano",
   "lati": -37.52,
   "long": 177.18,
   "elevation": 321
 },
 {
   "name": "Wrangell",
   "country": "United States",
   "type": "Shield",
   "lati": 62,
   "long": -144.02,
   "elevation": 4317
 },
 {
   "name": "Wudalianchi",
   "country": "China",
   "type": "Volcanic Field",
   "lati": 48.72,
   "long": 126.12,
   "elevation": 597
 },
 {
   "name": "Yake-dake",
   "country": "Japan",
   "type": "Stratovolcano",
   "lati": 36.22,
   "long": 137.59,
   "elevation": 2455
 },
 {
   "name": "Yali",
   "country": "Greece",
   "type": "Dome",
   "lati": 36.67,
   "long": 27.14,
   "elevation": 180
 },
 {
   "name": "Yantarni",
   "country": "United States",
   "type": "Stratovolcano",
   "lati": 57.02,
   "long": -157.19,
   "elevation": 1345
 },
 {
   "name": "Yasur",
   "country": "Vanuatu",
   "type": "Stratovolcano",
   "lati": -19.53,
   "long": 169.44,
   "elevation": 361
 },
 {
   "name": "Yellowstone",
   "country": "United States",
   "type": "Caldera",
   "lati": 44.43,
   "long": -110.67,
   "elevation": 2805
 },
 {
   "name": "Zavaritzki Caldera",
   "country": "Russia",
   "type": "Caldera",
   "lati": 46.93,
   "long": 151.95,
   "elevation": 624
 },
 {
   "name": "Zheltovsky",
   "country": "Russia",
   "type": "",
   "lati": 51.57,
   "long": 157.32,
   "elevation": 1953
 },
 {
   "name": "Zhupanovsky",
   "country": "Russia",
   "type": "",
   "lati": 53.59,
   "long": 159.15,
   "elevation": 2958
 },
 {
   "name": "Zimina",
   "country": "Russia",
   "type": "Stratovolcano",
   "lati": 55.86,
   "long": 160.6,
   "elevation": 3081
 }
]
